stop_id,stop_name,stop_code,visible,fare_zone_id,stop_lon,stop_lat,location_type,parent_station,stop_timezone,geometry_id,equipment_id,level_id,platform_code,address_id
GDLR,Gare de Lyon (RER),,1,,2.372987,48.844746,0,GDL,,,,,,
GDLM,Gare de Lyon (Metro),,1,,2.372987,48.844746,0,GDL,,,,,,
GDLB,Gare de Lyon (Bus),,1,,2.372987,48.844746,0,GDL,,,,,,
NATR,Nation (RER),,1,,2.396497,48.84849,0,NAT,,,,,,
NATM,Nation (Metro),,1,,2.396497,48.84849,0,NAT,,,,,,
CDGR,Charles de Gaulle (RER),,1,,2.295354,48.873965,0,CDG,,,,,,
CDGM,Charles de Gaulle (Metro),,1,,2.795354,48.973965,0,CDG,,,,,,
DEFR,La Défense (RER),,1,,2.238964,48.891737,0,DEF,,,,,,
CHAM,Châtelet (Metro),,1,,2.348145,48.858137,0,CHA,,,,,,
MTPB,Montparnasse (Bus),,1,,2.321783,48.842481,0,MTP,,,,,,
MTPZ,Montparnasse Zone,,1,,2.321783,48.842481,2,Navitia:MTPZ,,,,,,
CDGZ,Charles de Gaulle Zone,,1,,2.321783,48.842481,2,Navitia:CDGZ,,,,,,
GDL,Gare de Lyon,,1,,2.372987,48.844746,1,,,,,,,
NAT,Nation,,1,,2.396497,48.84849,1,,,,,,,
CDG,Charles de Gaulle,,1,,2.295354,48.873965,1,,,,,,,
DEF,La Défense,,1,,2.238964,48.891737,1,,,,,,,
CHA,Châtelet,,1,,2.348145,48.858137,1,,,,,,,
MTP,Montparnasse,,1,,2.321783,48.842481,1,,,,,,,
Navitia:MTPZ,Montparnasse Zone,,0,,2.321783,48.842481,1,,,,,,,
Navitia:CDGZ,Charles de Gaulle Zone,,0,,2.321783,48.842481,1,,,,,,,
